[
  {
    "name": "미도인 충장로",
    "img": "미도인 충장로",
    "address": "광주 동구 충장로안길 17 1층",
    "time": ["매일 11:30 - 21:00", "15:00 - 17:00 브레이크타임", "20:30 라스트오더"],
    "number": "062-222-1233",
    "link": "",
    "notice": "셰프의 손길로 한땀한땀 정성이 들어간",
    "menu": "가정식 스테이크, 스테이크 덮밥",
    "lat": "35.1481",
    "lng": "126.9153",
    "day": "1",
    "category" : "0" 
  },
  {
    "name": "산수쌈밥",
    "img": "산수쌈밥",
    "address": "광주 동구 동계로 11",
    "time": ["월~토 10:30 - 20:30", "정기휴무 : 일"],
    "number": "062-223-0766",
    "link": "http://instagram.com/sansussambob",
    "notice": "매일 신선한 재료로 건강하고 맛있는 집밥을 만들어 드립니다.",
    "menu": "우렁이 쌈밥 정식, 전복들깨탕",
    "lat": "35.1529",
    "lng": "126.9242",
    "day": "1",
    "category" : "0" 
    
  },
  {
    "name": "덮밥의신 혼술혼밥",
    "img": "덮밥의신 혼술혼밥",
    "address": "광주 동구 동명로 8-1",
    "time": ["매일 11:30 - 21:00", "15:00 - 17:00 브레이크타임", "14:30, 20:30 라스트오더"],
    "number": "070-7537-0336",
    "link": "",
    "notice": "조용한 분위기의 음식점",
    "menu": "",
    "lat": "35.1499",
    "lng": "126.9228",
    "day": "1",
    "category" : "0" 
    
  },
  {
    "name": "맷도리",
    "img": "맷도리",
    "address": "광주 동구 동명로 18 1층",
    "time": ["매일 18:00 - 06:00"],
    "number": "0507-1338-0031",
    "link": "",
    "notice": "2차로 가기 좋은 술집집",
    "menu": "맷도리모듬꼬치, 명란통감자",
    "lat": "35.1507",
    "lng": "126.9235",
    "day": "1",
    "category" : "0" 
  },
  {
    "name": "동명로15",
    "img": "동명로15",
    "address": "광주 동구 동명로 15",
    "time": ["매일 17:00 - 02:00"],
    "number": "0507-1367-1116",
    "link": "https://www.instagram.com/dmro_.15",
    "notice": "꼬치구이와 다양한 안주를 즐길 수 있는 곳",
    "menu": "베스트 꼬치 세트, 노미호다이(주류무한리필)",
    "lat": "35.1506",
    "lng": "126.9231",
    "day": "1",
    "category" : "0" 
  },
  {
    "name": "목로찌개",
    "img": "목로찌개",
    "address": "광주 동구 동명로 47 1-1",
    "time": ["매일 11:30 - 21:00", "20:00 라스트오더"],
    "number": "070-4790-5343",
    "link": "",
    "notice": "전라도 김치와 전라도 흑돼지의 만남",
    "menu": "목로냉국밥, 무쇠솥 김치찌개",
    "lat": "35.1517",
    "lng": "126.9258",
    "day": "0",
    "category" : "0" 
  },
  {
    "name": "후토루",
    "img": "후토루",
    "address": "광주 동구 제봉로82번길 21 1층",
    "time": ["매일 11:30 - 20:00"],
    "number": "0507-1352-9933",
    "link": "",
    "notice": "밥 양을 줄이고 부속 재료들이 더 많은 프리미엄 김밥",
    "menu": "연어후토마키,지단후토마키",
    "lat": "35.1474",
    "lng": "126.9235",
    "day": "0",
    "category" : "0" 
  },
  {
    "name": "호시마츠라멘",
    "img": "호시마츠라멘",
    "address": "광주 동구 제봉로110번길 15",
    "time": ["매일 11:30 - 22:00", "21:00 라스트오더"],
    "number": "0507-1307-4529",
    "link": "http://www.instagram.com/hosimatsu_official",
    "notice": "화학적인 첨가물을 넣지 않은 100% 돈골과 계골의 환상배합",
    "menu": "카라호시라멘, 호시라멘",
    "lat": "35.149",
    "lng": "126.9234",
    "day": "0",
    "category" : "0" 
  },
  {
    "name": "1960청원모밀",
    "img": "1960청원모밀",
    "address": "광주 동구 중앙로 174-1",
    "time": ["매일 10:30 - 20:00"],
    "number": "062-222-2210",
    "link": "",
    "notice": "전통 시원하고 매콤달콤한 메밀국수",
    "menu": "모밀국수, 모밀자장",
    "lat": "35.1492",
    "lng": "126.9144",
    "day": "0",
    "category" : "0" 
  },
  {
    "name": "쿠로시로",
    "img": "쿠로시로",
    "address": "광주 동구 금남로 241-7 쿠로시로",
    "time": ["매일 11:30 - 20:30", "15:00 - 17:00 브레이크타임", "20:00 라스트오더"],
    "number": "0507-1327-1710",
    "link": "https://www.instagram.com/kuro_shiro_ramen",
    "notice": "백탕 청탕이 맛있는 일본식 라멘 전문점",
    "menu": "토리 파이탄, 카라 파이탄",
    "lat": "35.1487",
    "lng": "126.9185",
    "day": "0",
    "category" : "0" 
  },
  {
    "name": "카페호시정",
    "img": "카페호시정",
    "address": "광주 동구 동계천로 137-9",
    "time": ["매일 12:00 - 22:00"],
    "number": "062-446-0610",
    "link": "https://www.instagram.com/hosijung_cake",
    "notice": "달콤함 한입",
    "menu": "호시정오로라, 호시정라떼",
    "lat": "35.1497",
    "lng": "126.9249",
    "day": "2"
    
  },
  {
    "name": "티소하",
    "img": "티소하",
    "address": "광주 동구 동계천로 151-17 엘림 2동",
    "time": ["화 ~ 일 12:00 - 21:00", "정기휴무 : 월"],
    "number": "0507-1351-8186",
    "link": "http://instagram.com/teasoha",
    "notice": "프리미엄 티와 티칵테일 및 드립커피 등을 즐기실 수 있는 프라이빗한 찻집",
    "menu": "다관세트, 말차 아포가토",
    "lat": "35.1496",
    "lng": "126.9258",
    "day": "2"
  },
  {
    "name": "주디마리",
    "img": "주디마리",
    "address": "광주 동구 동명로 9 3층",
    "time": ["매일 11:00 - 22:00"],
    "number": "0507-1466-4547",
    "link": "https://twitter.com/cafe_judymary",
    "notice": "문익점푸딩 귀여움은 덤",
    "menu": "민트초코푸딩, 초코푸딩",
    "lat": "35.1502",
    "lng": "126.9227",
    "day": "2"
  },
  {
    "name": "티앗",
    "img": "티앗",
    "address": "광주 동구 동명로14번길 12 티앗",
    "time": ["매일 12:00 - 22:00"],
    "number": "062-225-2684",
    "link": "http://m.smartstore.naver.com/teaat",
    "notice": "차를 이용한 다양한 음료를 연구하는 홍차카페",
    "menu": "티앗 홍차라떼, 페르난도 매직모먼츠",
    "lat": "35.15",
    "lng": "126.9244",
    "day": "2"
  },
  {
    "name": "토부",
    "img": "토부",
    "address": "광주 동구 동명로 5-1 1층",
    "time": ["매일 18:00 - 03:00", "14:30, 02:00 라스트오더"],
    "number": "0507-1357-9297",
    "link": "https://www.instagram.com/tobu_izakaya",
    "notice": "사시미와 각종 나베, 일품요리 다양하게 준비 되어있는",
    "menu": "모듬 사시미, 광어사시미",
    "lat": "35.1501",
    "lng": "126.9226",
    "day": "1",
    "category" : "1" 

  },
  {
    "name": "바다포차돌섬",
    "img": "바다포차돌섬",
    "address": "광주 동구 백서로 222 바다포차 돌섬",
    "time": ["매일 18:00 - 02:00", "01:00 라스트오더"],
    "number": "070-7525-2047",
    "link": "http://instagram.com/badapocha_dolsum",
    "notice": "테라스에서 돌섬 만의 분위기를 느껴보세요.",
    "menu": "모듬 해산물, 모듬회한상(1~2인)",
    "lat": "35.1477",
    "lng": "126.9267",
    "day": "1",
    "category" : "1"
  },
  {
    "name": "정희",
    "img": "정희",
    "address": "광주 동구 동명로20번길 20 1층",
    "time": ["매일 11:30 - 21:00", "15:00 - 17:00 브레이크타임", "20:30 라스트오더"],
    "number": "0507-1373-6533",
    "link": "https://www.instagram.com/junghee_dongmyeong",
    "notice": "끼니를 때우는게 아닌 요리를 먹는 느낌낌",
    "menu": "봉골레 칼국수, 새우감자전",
    "lat": "35.1503",
    "lng": "126.9257",
    "day": "1",
    "category" : "1"
  },
  {
    "name": "육층집",
    "img": "육층집",
    "address": "광주 동구 문화전당로35번길 16-4 오렌지타운 6층 육층집",
    "time": ["매일 17:00 - 00:30", "23:30 라스트오더"],
    "number": "062-222-6679",
    "link": "https://www.instagram.com/sixthfloor6",
    "notice": "168시간 이상의 저온숙성을 거친 최상급 돼지고기",
    "menu": "숙성생삼겹살, 숙성생목살",
    "lat": "35.1455",
    "lng": "126.9176",
    "day": "1",
    "category" : "1"
  },
  {
    "name": "키키키",
    "img": "키키키",
    "address": "광주 동구 장동로 15 1층",
    "time": ["매일 18:00 - 01:00", "23:30 라스트오더"],
    "number": "0507-1345-6422",
    "link": "",
    "notice": "독보적인 스몰디쉬 하이볼바 키키키",
    "menu": "혼마구로 참치광어, 시원한 바지락 술찜",
    "lat": "35.1487",
    "lng": "126.9237",
    "day": "1",
    "category" : "1"
  },
  {
    "name": "월계수식당",
    "img": "월계수식당",
    "address": "광주 동구 충장로 102-11",
    "time": ["매일 11:00 - 21:00"],
    "number": "0507-1411-3231",
    "link": "",
    "notice": "광주노포의 비벼먹는 삼선볶음밥",
    "menu": "삼선볶음밥, 옛날돈까지지",
    "lat": "35.1468",
    "lng": "126.9175",
    "day": "0",
    "category" : "1"
  },
  {
    "name": "900달러",
    "img": "900달러",
    "address": "광주 동구 동계천로 103-2",
    "time": ["매일 12:00 - 22:00"],
    "number": "062-222-1705",
    "link": "http://instagram.com/900dollar_bitgoeul",
    "notice": "인생피자를 맛보세요",
    "menu": "하프하프피자, 페퍼로니피자",
    "lat": "35.1514",
    "lng": "126.9221",
    "day": "0",
    "category" : "1"
  },
  {
    "name": "분식집",
    "img": "분식집",
    "address": "광주 동구 동계천로 143-5 1층 분식집",
    "time": ["매일 11:30 - 20:30", "15:00 - 17:00 브레이크타임", "14:30, 20:00 라스트오더"],
    "number": "0507-1368-1448",
    "link": "https://www.instagram.com/bunsikhouse",
    "notice": "동명동에서 즐기는 귀여운 분식",
    "menu": "치킨치즈 떡볶이, 파튀김 떡볶이이",
    "lat": "35.1492",
    "lng": "126.9251",
    "day": "0",
    "category" : "1"
  },
  {
    "name": "행복담",
    "img": "행복담",
    "address": "광주 동구 서석로85번길 2",
    "time": ["월~토 11:30 - 21:00", "15:00 - 17:30 브레이크타임", "20:00 라스트오더"],
    "number": "062-233-4744",
    "link": "https://www.instagram.com/happy_wall_",
    "notice": "특별한 크림순대국밥",
    "menu": "크림순대국밥, 순두부찌개",
    "lat": "35.1496",
    "lng": "126.9206",
    "day": "0",
    "category" : "1"
  },
  {
    "name": "엄마네 돼지찌개",
    "img": "엄마네 돼지찌개",
    "address": "광주 동구 문화전당로23번길 33",
    "time": ["월~토 12:00 - 21:00", "정기휴무 : 일"],
    "number": "0507-1400-7082",
    "link": "",
    "notice": "광주광역시 동구 아주 매운 김치찌개",
    "menu": "돼지찌개",
    "lat": "35.1437",
    "lng": "126.9162",
    "day": "0",
    "category" : "1"
  },
  {
    "name": "오하이오 블루벨트",
    "img": "오하이오 블루벨트",
    "address": "광주 동구 동명로25번길 9-1 1층 우측 파란 상가",
    "time": ["수~월 12:00 - 21:30", "21:00 라스트오더"],
    "number": "0507-1308-7847",
    "link": "https://www.instagram.com/ohiobluebelt",
    "notice": "우연히 옆 자리를 차지할 낮선 당신을 기다립니다.",
    "menu": "아메리카노, 크림라떼",
    "lat": "35.1515",
    "lng": "126.9227",
    "day": "2"
  },
  {
    "name": "소뇨",
    "img": "소뇨",
    "address": "광주 동구 장동로 19-3",
    "time": ["매일 12:00 - 22:00", "21:30 라스트오더"],
    "number": "",
    "link": "https://www.instagram.com/cafe._.sogno",
    "notice": "생방송투데이 2364회, 19.07.08.2019년 7월 8일 과일빙수",
    "menu": "과일차, 에이드",
    "lat": "35.1483",
    "lng": "126.9243",
    "day": "2"
  },
  {
    "name": "필로소피아",
    "img": "필로소피아",
    "address": "광주 동구 지호로160번길 9 2층",
    "time": ["화~일 11:00 - 21:00", "20:30 라스트오더", "정기휴무 : 월"],
    "number": "0507-1337-3400",
    "link": "http://www.instagram.com/cafe_philosophia",
    "notice": "입에서 부드럽게 녹는 실타래빙수 100%우유로 만든 광주 유일한 실타래빙수 입니다",
    "menu": "딸기실타래빙수, 실타래고구마빙수",
    "lat": "35.149",
    "lng": "126.946",
    "day": "2"
  },
  {
    "name": "제제젤라또",
    "img": "제제젤라또",
    "address": "광주 동구 제봉로 126 1층",
    "time": ["화~일 12:00 - 23:00", "정기휴무 : 월"],
    "number": "0507-1304-5752",
    "link": "https://www.instagram.com/zeze_gelato",
    "notice": "매장에서 직접 만드는 수제 젤라또 전문점 입니다.",
    "menu": "크로플, XL box",
    "lat": "35.1495",
    "lng": "126.9225",
    "day": "2"
  },
  {
    "name": "솔밭솥밥",
    "img": "솔밭솥밥",
    "address": "광주 동구 동명로 9-5 1층",
    "time": [
      "매일 11:30 - 21:00",
      "15:00 - 17:00 브레이크타임",
      "14:30, 20:30 라스트오더"
    ],
    "number": "070-8844-2998",
    "link": "http://instagram.com/solbatsotbob",
    "notice": "광주 동명동 맛집 줄 서서 먹는 솥밥솥밥",
    "menu": "스테이크솥밥, 도미관자솥밥",
    "lat": "35.1503",
    "lng": "126.9227",
    "day": "0",
    "category" : "2"
  },
  {
    "name": "목하식당",
    "img": "목하식당",
    "address": "광주 동구 동명로25번길 6 1층 목하식당",
    "time": [
      "매일 11:30 - 21:00",
      "15:10 - 17:00 브레이크타임"
    ],
    "number": "0507-1314-8904",
    "link": "https://baemin.me/jjFHdxFGW",
    "notice": "광주에서 인기있는 플레이스 동명동에 위치한 작은 음식점",
    "menu": "회오리 오믈렛",
    "lat": "35.1516",
    "lng": "126.9231",
    "day": "0",
    "category" : "2"
  },
  {
    "name": "소바 쿄다이",
    "img": "소바 쿄다이",
    "address": "광주 동구 동계천로 135-3 소바 쿄다이",
    "time": [
      "매일 11:30 - 21:00",
      "20:45 라스트오더"
    ],
    "number": "0507-1345-8967",
    "link": "http://instagram.com/solbatsotbob",
    "notice": "호남 최초의 마제소바 전문점 소바 쿄다이입니다",
    "menu": "쿄다이 마제소바, 키마 카레소바",
    "lat": "35.1495",
    "lng": "126.9244",
    "day": "0",
    "category" : "2"
  },
  {
    "name": "열도지",
    "img": "열도지",
    "address": "광주 동구 제봉로82번길 17",
    "time": [
      "매일 11:00 - 21:00",
      " 15:00 - 17:00 브레이크타임"
    ],
    "number": "062-227-5888",
    "link": "http://ok114.co.kr/0622275888",
    "notice": "농림축산식품부 제공 안심식당",
    "menu": "대만우육면",
    "lat": "35.1417",
    "lng": "126.9233",
    "day": "0",
    "category" : "2"
  },
  {
    "name": "소보쿠",
    "img": "소보쿠",
    "address": "광주 동구 장동로 51-1 소보쿠",
    "time": [
      "매일 11:30 - 20:00",
      "15:00 - 17:00 브레이크타임",
      "14:00, 19:00 라스트오더"
    ],
    "number": "0507-1313-1294",
    "link": "https://www.instagram.com/soboku_/?utm_source=ig_profile_share&igshid=6h61o8hhcun",
    "notice": "카레와 연어를 팔고 있는 작은 식당입니다",
    "menu": "토마토카레, 치킨난반 정식",
    "lat": "35.1472",
    "lng": "126.9273",
    "day": "0",
    "category" : "2"
  },
  {
    "name": "이츠모 동명본점",
    "img": "이츠모 동명본점",
    "address": "광주 동구 동명로 45-1 1층",
    "time": [
      "매일 11:30 - 21:00",
      "15:00 - 17:00 브레이크타임",
      "20:30 라스트오더"
    ],
    "number": "0507-1412-1513",
    "link": "",
    "notice": "동명동에 위치한 숯불함박전문점 입니다.",
    "menu": "[재구매율 90%]소함바그3(pcs)",
    "lat": "35.1517",
    "lng": "126.9255",
    "day": "1",
    "category" : "2"
  },
  {
    "name": "하노쿠",
    "img": "하노쿠",
    "address": "광주 동구 동명로26번길 9-1 1층",
    "time": [
      "매일 17:00 - 01:00",
      "00:00 라스트오더"
    ],
    "number": "0507-1325-8476",
    "link": "https://www.instagram.com/hanoku_dining/",
    "notice": "하노쿠는 '한옥'과 일본의 집을 뜻하는 '카노쿠'를 합하여 한식과 일식 이자카야의 퓨전 메뉴를 제공한다는 뜻을 담았습니다.",
    "menu": "돼지갈비 스테이크, 조개 어묵탕",
    "lat": "35.1513",
    "lng": "126.9247",
    "day": "1",
    "category" : "2"
  },
  {
    "name": "이츠키",
    "img": "이츠키",
    "address": "광주 동구 동명로 11 1층",
    "time": [
      "매일 18:00 - 02:00','01:30 라스트오더"
    ],
    "number": "0507-1409-5131",
    "link": "",
    "notice": "이자카야 이츠키: 나무란 뜻을 가지고 있는 저희 이츠키는 해산물과 일품요리를 즐기실 수 있는 주점입니다.",
    "menu": "사시미",
    "lat": "35.1503",
    "lng": "126.9229",
    "day": "1",
    "category" : "2"
  },
  {
    "name": "소야",
    "img": "소야",
    "address": "광주 동구 장동로 6",
    "time": [
      "매일 18:00 - 04:00"
    ],
    "number": "0507-1401-9958",
    "link": "http://www.instagram.com/soya_and_haru",
    "notice": "젊은 감성의 캐쥬얼한 이자카야 소야 입니다. 편하게 와서 좋은 시간 함께 즐겨요",
    "menu": "마제멘, 한우타다끼",
    "lat": "35.149",
    "lng": "126.9227",
    "day": "1",
    "category" : "2"
  },
  {
    "name": "한식경",
    "img": "한식경",
    "address": "광주 동구 동명로25번길 6-1 한식경",
    "time": [
      "매일 11:30 - 21:00",
      "15:30 - 17:00 브레이크타임",
      "20:15 라스트오더"
    ],
    "number": "0507-1324-3663",
    "link": "",
    "notice": "한국적인 맛을 잘 살려낸 퓨전양식",
    "menu": "육전스테이크, 참송이버섯파스타",
    "lat": "35.1517",
    "lng": "126.9231",
    "day": "1",
    "category" : "2"
  },
  {
    "name": "데이오프나이트",
    "img": "데이오프나이트",
    "address": "광주 동구 동명로26번길 5",
    "time": [
      "매일 12:00 - 21:30"
    ],
    "number": "0507-1315-5763",
    "link": "",
    "notice": "커플들끼리 오기 좋은 곳",
    "menu": "플랫화이트",
    "lat": "35.1513",
    "lng": "126.9244",
    "day": "2"
  },
  {
    "name": "호재",
    "img": "호재",
    "address": "광주 동구 동명로67번길 22-49 호재",
    "time": [
      "매일 13:00 - 02:00",
      "화(정기휴무)"
    ],
    "number": "0507-1322-0638",
    "link": "https://www.instagram.com/hozaes",
    "notice": "'좋을 호','재목 재'. 카페 호재는 이름이 가지는 의미처럼, 좋은 재료와 그것을 만드는 사람의 마음을 뜻합니다.",
    "menu": "필터커피, 냉침커피",
    "lat": "35.1536",
    "lng": "126.9267",
    "day": "2"
  },
  {
    "name": "런오브더밀",
    "img": "런오브더밀",
    "address": "광주 동구 제봉로 102-6",
    "time": [
      "매일 12:00 - 22:00",
      "21:00 라스트오더"
    ],
    "number": "0507-1344-5348",
    "link": "https://www.youtube.com/watch?v=Z_ZHxWiTS1o",
    "notice": "분위기가 좋은 카페",
    "menu": "허니비 플랫",
    "lat": "35.1475",
    "lng": "126.9224",
    "day": "2"
  },
  {
    "name": "도피 동명점",
    "img": "도피 동명점",
    "address": "광주 동구 백서로 238",
    "time": [
      "매일 12:00 - 22:00",
      "21:30 라스트오더"
    ],
    "number": "062-447-0971",
    "link": "http://instagram.com/cafe.doffee",
    "notice": "도피의 도넛은 12시간 이상 저온숙성한 반죽으로 당일생산하여 당일판매 하고 있습니다.",
    "menu": "크렘브륄레 도넛, 로투스 도넛",
    "lat": "35.1489",
    "lng": "126.927",
    "day": "2"
  },
  {
    "name": "가족회관",
    "img": "가족회관",
    "address": "광주 동구 동명로 50",
    "time": ["매일 12:00 - 21:00", "15:00 - 18:00 브레이크타임"],
    "number": "0507-1324-3845",
    "link": "",
    "notice": "입과 손이 즐거운 동명동 한정식",
    "menu": "점심특선, 한정식",
    "lat": "35.1513",
    "lng": "126.926",
    "day": "0",
    "category" : "3"
  },
  {
    "name": "마한지",
    "img": "마한지",
    "address": "광주 동구 문화전당로 37-2",
    "time": ["매일 11:30 - 22:00", "15:00 - 17:00 브레이크타임"],
    "number": "062-234-9261",
    "link": "",
    "notice": "깔끔한 인테리어, 아늑한 분위기 ",
    "menu": "마늘갈비, 고기구이정식",
    "lat": "35.146",
    "lng": "126.9187",
    "day": "0",
    "category" : "3"
  },
  {
    "name": "평화식당",
    "img": "평화식당",
    "address": "광주 동구 문화전당로 37-2",
    "time": ["매일 24시간 영업"],
    "number": "0507-1321-6226",
    "link": "",
    "notice": "불로동맛집 충장로 삼겹살 먹으러 평화식당",
    "menu": "45년대패삼겹살, 숫불양념돼지갈비",
    "lat": "35.1462",
    "lng": "126.9154",
    "day": "0",
    "category" : "3"
  },
  {
    "name": "동백카츠 동명점",
    "img": "동백카츠 동명점",
    "address": "광주 동구 동계천로 147 1층",
    "time": ["매일 11:00 - 21:00", "15:00 - 17:00 브레이크타임"],
    "number": "062-226-7799",
    "link": "",
    "notice": "광주 돈까스 맛집 !!",
    "menu": "등심카츠, 안심카츠",
    "lat": "35.1489",
    "lng": "126.9254",
    "day": "0",
    "category" : "3"
  },
  {
    "name": "장독대",
    "img": "장독대",
    "address": "광주 동구 문화전당로 43 3층",
    "time": ["매일 11:00 - 21:00"],
    "number": "062-223-5630",
    "link": "",
    "notice": "정성을 다한 전라도식 쌈밥",
    "menu": "쌈밥밥, 낙지볶음",
    "lat": "35.1461",
    "lng": "126.9187",
    "day": "0",
    "category" : "3"
  },
  {
    "name": "형아네생갈비",
    "img": "형아네생갈비",
    "address": "광주 동구 필문대로 242-7 1층",
    "time": ["매일 17:00 - 22:30", "21:00 라스트오더"],
    "number": "0507-1316-7742",
    "link": "",
    "notice": "돼지 생갈비 맛집",
    "menu": "생갈비, 담양식돼지갈비",
    "lat": "35.1496",
    "lng": "126.9287",
    "day": "1",
    "category" : "3"
  },
  {
    "name": "삼평식당",
    "img": "삼평식당",
    "address": "광주 동구 장동로 23-33",
    "time": ["매일 16:30 - 01:00"],
    "number": "010-9146-9947",
    "link": "https://www.instagram.com/pork_in_peace/",
    "notice": "푸짐한 한상",
    "menu": "급랭삼겹살, 삼평삼합",
    "lat": "35.1485",
    "lng": "126.9246",
    "day": "1",
    "category" : "3"
  },
  {
    "name": "이진오족발",
    "img": "이진오족발",
    "address": "광주 동구 장동로 19-2",
    "time": ["화~일 12:00 - 24:00", "정기휴무 : 월"],
    "number": "0504-0999-0342",
    "link": "https://www.instagram.com/leejinojokbal",
    "notice": "양도 많고 맛도 좋은 광주 동명동 술집",
    "menu": "이진오족발, 이진오보쌈",
    "lat": "35.1484",
    "lng": "126.9243",
    "day": "1",
    "category" : "3"
  },
  {
    "name": "금관꽃돼지",
    "img": "금관꽃돼지",
    "address": "광주 동구 제봉로 110번길 5",
    "time": ["매일 17:00 - 23:00"],
    "number": "062-234-9922",
    "link": "",
    "notice": "선도와 퀄리티가 굉장한 숨은 한돈 맛집",
    "menu": "꽃삼겹살, 모듬한판",
    "lat": "35.1486",
    "lng": "126.9225",
    "day": "1",
    "category" : "3"
  },
  {
    "name": "새벽달",
    "img": "새벽달",
    "address": "광주 동구 장동로 11",
    "time": ["매일 12:00 - 02:00"],
    "number": "070-4046-3331",
    "link": "",
    "notice": "분위기 있는 술집 겸 밥집집",
    "menu": "궈바로우, 사천짬뽕",
    "lat": "35.1489",
    "lng": "126.9235",
    "day": "1",
    "category" : "3"
  },
  {
    "name": "Myriade",
    "img": "Myriade",
    "address": "광주 동구 동계천로 135",
    "time": ["화~일 12:00 - 22:00", "정기휴무 : 월"],
    "number": "010-6611-8208",
    "link": "",
    "notice": "디저트가 맛있는 카페",
    "menu": "휘낭시에, 크로아상",
    "lat": "35.1495",
    "lng": "126.9245",
    "day": "2"
  },
  {
    "name": "맷차",
    "img": "맷차",
    "address": "광주 동구 동계천로 132",
    "time": ["매일 12:00 - 23:00"],
    "number": "062-413-0303",
    "link": "http://instagram.com/gwangju_metcha",
    "notice": "맷돌커피",
    "menu": "말차밀크티, 타르트한판",
    "lat": "35.1497",
    "lng": "126.9238",
    "day": "2"
  },
  {
    "name": "프랭크커핀바 광주동명점",
    "img": "프랭크커핀바 광주동명점",
    "address": "광주 동구 동명로14번길 15 1층",
    "time": ["매일 12:00 - 22:00", "21:30 라스트오더"],
    "number": "0507-1304-5130",
    "link": "",
    "notice": "트렌디한 식음료 문화를 지향하는 커피 전문점입니다.",
    "menu": "프랭크커피, 크로플",
    "lat": "35.1501",
    "lng": "126.9249",
    "day": "2"
  },
  {
    "name": "스트럭트",
    "img": "스트럭트",
    "address": "광주 동구 동명동 154-15번지",
    "time": ["매일 11:00 - 22:00"],
    "number": "062-225-0502",
    "link": "",
    "notice": "크고 흠잡을 곳 없는 카페.",
    "menu": "아메리카노, 크림밀크티",
    "lat": "35.15",
    "lng": "126.9247",
    "day": "2"
  }
]